NAME,LATITUDE,LONGITUDE,TYPE
Charles Simmonds Park,53.515582,-113.531032,Playground
High Park Community League Playground,53.5573,-113.588494,Playground
Maude Belle Park,53.513822,-113.441141,Playground
St. Benedict School,53.526026,-113.63467,Playground
Fulton PIace School,53.545365,-113.425499,Playground
Gabrielle Roy School,53.530178,-113.46194,Playground
Balwin,53.59157,-113.449101,Playground
Ralph Hopp Park,53.589379,-113.445525,Playground
Granville Tot Lot,53.507325,-113.679191,Playground
Mother Teresa School,53.551993,-113.476072,Playground
Duggan School,53.472311,-113.506031,Playground
Prince Rupert School,53.56213,-113.520023,Playground
Walker Park,53.41439,-113.436689,Playground
King Edward Park,53.513596,-113.460794,Playground
MacEwan,53.429454,-113.530366,Playground
Rundle Park,53.555114,-113.386152,Playground
Belmead Park,53.525775,-113.636118,Playground
Rosslyn Playground,53.594002,-113.512077,Playground
Mt. Royal Sch,53.568424,-113.425072,Playground
St Catherine,53.556163,-113.508946,Playground
Eastwood Community League,53.571207,-113.472379,Playground
Silver Heights Park,53.53278,-113.464483,Playground
Father Lacombe,53.59079,-113.506355,Playground
Calder School Playground,53.588682,-113.526451,Playground
Rutherford Park,53.420042,-113.534372,Playground
Kinsmen Park Junior,53.52656,-113.508763,Playground
Sister Annata Brockman,53.489989,-113.68347,Playground
Lorelei Playground,53.623141,-113.501684,Playground
Kinsmen Park Senior,53.526756,-113.508922,Playground
Westridge Playground,53.506306,-113.605823,Playground
Eastwood Community League,53.570897,-113.472037,Playground
Greenfield Community League,53.473386,-113.525997,Playground
Charles Simmonds Park,53.515266,-113.530939,Playground
Kirkness School/Park,53.611877,-113.385388,Playground
Westglen,53.55495,-113.542522,Playground
High Park School Playground,53.556122,-113.586733,Playground
,53.420081,-113.535351,Playground
St Pius X,53.577433,-113.543997,Playground
Ozerna Park,53.620746,-113.448659,Playground
McKee School,53.48746,-113.509933,Playground
Terwillegar Town Residents Assoc Playground,53.453605,-113.58498,Playground
Prince Charles Playground,53.574622,-113.537437,Playground
Suder Greens,53.520937,-113.684548,Playground
Mary Finlay Park,53.543464,-113.451607,Playground
Haddow Park,53.453495,-113.597003,Playground
Violet Archer Park,53.50678,-113.513454,Playground
Kilkenny Park/CL Barnett School,53.610053,-113.450794,Playground
Parkallen,53.503661,-113.518979,Playground
St. Faith Tot Lot,53.569281,-113.483122,Playground
Kinsmen Park Senior,53.527155,-113.5093,Playground
McQueen Playground,53.555704,-113.570655,Playground
Mill Creek,53.515696,-113.480801,Playground
Kirkness School/Park,53.611715,-113.385088,Playground
Kinsmen Park Senior,53.527071,-113.50849,Playground
Windermere Park,53.427292,-113.622304,Playground
Chappelle Park,53.399405,-113.572084,Playground
Dechene Playground,53.491429,-113.637013,Playground
Mcleod Park,53.609659,-113.43092,Playground
Lauderdale Playground,53.588642,-113.503331,Playground
Castle Downs Park,53.616831,-113.525533,Playground
Coronation,53.555334,-113.560621,Playground
Sacred Heart School,53.554548,-113.486563,Playground
Pleasantview Sch,53.494989,-113.50417,Playground
Steinhauer School,53.464668,-113.504646,Playground
Monsignor Walter Fitzgerald Playground,53.505338,-113.635276,Playground
Chappelle Rope Climber,53.404037,-113.569974,Playground
Jackson Heights Park,53.483365,-113.407638,Playground
Woodcroft Tot Lot,53.567797,-113.555859,Playground
Bonnie Doon Park,53.527389,-113.470266,Playground
Abbott School,53.574913,-113.392086,Playground
Sheriff Robertson Park,53.559169,-113.466366,Playground
Miller Park,53.612813,-113.416087,Playground
Highlands Playground,53.566695,-113.433369,Playground
Allendale School,53.500923,-113.502801,Playground
Rossdale,53.530764,-113.491297,Playground
Glenora Playground,53.546365,-113.557095,Playground
Allin Park,53.532628,-113.595778,Playground
,53.596765,-113.560055,Playground
Garneau School West,53.522187,-113.514041,Playground
Nu-west Park,53.451684,-113.423905,Playground
Sifton School Park,53.594124,-113.409379,Playground
Grad's Park Playground,53.555866,-113.531347,Playground
Sifton Park Elementary School,53.594097,-113.40754,Playground
Grandin School,53.536991,-113.511658,Playground
Leger School,53.45918,-113.576806,Playground
Nor'wester Athletic Association Playground,53.425795,-113.409596,Playground
Wedgewood Heights Playground,53.480151,-113.647152,Playground
Ormsby,53.498892,-113.639234,Playground
Edmonton Chris,53.556069,-113.567873,Playground
Granite Park,53.522522,-113.507642,Playground
St. Dominic School,53.605891,-113.433586,Playground
Duggan Community League Playground,53.4733,-113.506321,Playground
Gold Bar Community League,53.548586,-113.4136,Playground
Caernarvon Tot Lot A,53.60862,-113.532915,Playground
Gold Bar Sch,53.549982,-113.413724,Playground
Ecole Notre Dame,53.523888,-113.588069,Playground
Homesteader Community League,53.586407,-113.408428,Playground
Pollard Meadows School,53.448005,-113.412261,Playground
Kittlitz Park,53.469941,-113.385028,Playground
Kiniski Gardens School,53.477801,-113.404161,Playground
Evansdale School/Park,53.610435,-113.482744,Playground
Michaels Park,53.479537,-113.448299,Playground
Windsor Park School,53.523613,-113.535521,Playground
Rundle Park,53.555327,-113.386314,Playground
Terrace Heights Park,53.543398,-113.433944,Playground
Beaumaris Park,53.616707,-113.49767,Playground
Elmwood Park Community League,53.581589,-113.456687,Playground
Delton Community League,53.579721,-113.475626,Playground
Patricia Heights Playground,53.510791,-113.603623,Playground
Alex Taylor,53.546858,-113.476602,Playground
Beaumaris Park,53.616825,-113.497885,Playground
Ambleside Rope Climber,53.430087,-113.608888,Playground
Mayliewan (St John Bosco School) Park,53.622247,-113.459056,Playground
Day Care,53.487435,-113.545421,Playground
Avonmore Park,53.51007,-113.448024,Playground
Charlesworth,53.429858,-113.431758,Playground
Academy at King Edward,53.521281,-113.489598,Playground
Blackmud Park,53.420209,-113.512656,Playground
St Stanislaus,53.473987,-113.524706,Playground
Calder School Playground,53.589043,-113.526362,Playground
Father L. Green,53.607908,-113.457418,Playground
Garneau School West,53.522205,-113.514853,Playground
Tipton Park,53.516334,-113.510176,Playground
St. Alphonsus School,53.568146,-113.466915,Playground
King Edward Park,53.513566,-113.460368,Playground
Wellington Park Playground,53.596586,-113.550727,Playground
Blue Quill West,53.456878,-113.539053,Playground
Rutherford Park,53.420256,-113.534758,Playground
Laurel Park 3,53.441387,-113.388008,Playground
Ormsby Playground,53.497482,-113.636934,Playground
Kilkenny Park/CL Barnett School,53.610445,-113.451307,Playground
Zoie Gardner Park,53.585688,-113.450485,Playground
Parkview,53.526005,-113.567652,Playground
Lorne Street Park,53.562921,-113.482378,Playground
Hay Ridge Park,53.416208,-113.572269,Playground
Fort Edmonton Park,53.502156,-113.58133,Playground
Charlesworth,53.429593,-113.431492,Playground
Killarney Park,53.59059,-113.474969,Playground
Sweetgrass School,53.463028,-113.529017,Playground
McKernan School,53.513815,-113.523301,Playground
Paisley Park,53.414424,-113.55946,Playground
Glengarry Park,53.595823,-113.477331,Playground
Empire Park Community League,53.486174,-113.509241,Playground
Westridge Playground,53.50626,-113.605273,Playground
Giovanni Caboto,53.556321,-113.484079,Playground
Garneau School East,53.522243,-113.512977,Playground
Mayliewan (St John Bosco School) Park,53.622178,-113.459293,Playground
Rosenthal,53.517437,-113.699203,Playground
Forest Heights Park,53.551001,-113.445144,Playground
,53.534491,-113.570376,Playground
Skyrattler School,53.450571,-113.524148,Playground
Magrath Heights,53.449599,-113.559665,Playground
Bonnie Doon Park,53.527387,-113.47082,Playground
Mayliewan (St John Bosco School) Park,53.622168,-113.459026,Playground
Clara Tyner School,53.530888,-113.436392,Playground
McCauley School,53.553146,-113.484037,Playground
Ambleside,53.433096,-113.603972,Playground
Miller Park,53.612424,-113.416023,Playground
Central McDougall,53.554789,-113.503686,Playground
Rideau School,53.478023,-113.504651,Playground
Glengarry Park,53.595946,-113.476317,Playground
Rideau School,53.47802,-113.504986,Playground
Rutherford Sch,53.522639,-113.468451,Playground
Brander Gardens Park,53.493683,-113.575683,Playground
Canora Park/Holy Cross School,53.547344,-113.582532,Playground
Parkdale Community League,53.562986,-113.471429,Playground
Kinsmen Park Senior,53.526911,-113.509422,Playground
St. Mary,53.475815,-113.586224,Playground
Jackie Parker Park,53.483894,-113.421488,Playground
Touchdown Playground,53.587383,-113.537617,Playground
St. Clements School,53.44593,-113.448454,Playground
Michael Strembitsky,53.413626,-113.462356,Playground
Sherbrooke Playground,53.574873,-113.548262,Playground
Strathearn Park,53.529613,-113.46107,Playground
Allendale School,53.500732,-113.502884,Playground
Castle Downs Park,53.616727,-113.525637,Playground
Ellingson Park,53.502942,-113.517906,Playground
Ambleside,53.432801,-113.603008,Playground
Matt Berry,53.621892,-113.431211,Playground
Keheewin School,53.448382,-113.503013,Playground
Bishop Savaryn School,53.621621,-113.507141,Playground
Arthur Elliott Park Playground,53.533529,-113.584401,Playground
William Hawrelak Park,53.526744,-113.544062,Playground
Groat Playground,53.550135,-113.53883,Playground
Balwin Park,53.587344,-113.456089,Playground
Bellevue School,53.568424,-113.449031,Playground
Rosslyn Tot Playground,53.598178,-113.498446,Playground
Belgravia Community League,53.50946,-113.530851,Playground
Secord Playground,53.533555,-113.691708,Playground
Keswick,53.419665,-113.641236,Playground
"W.C. ""Tubby"" Bateman Park",53.523344,-113.480064,Playground
Westwood Arena Park,53.573963,-113.493031,Playground
Kildare,53.606108,-113.457694,Playground
Montrose Community League,53.572458,-113.432854,Playground
Holy Family,53.447069,-113.403813,Playground
Mother Teresa School,53.551859,-113.476088,Playground
Beacon Heights Park Tot Lot,53.572895,-113.395634,Playground
Duncan Innes Park,53.516309,-113.452518,Playground
John A McDougall,53.555242,-113.506064,Playground
Menisa School,53.442805,-113.447308,Playground
Hamptons,53.492825,-113.679887,Playground
Thorncliff Playground,53.51608,-113.620735,Playground
Aspen Gardens Community League,53.474819,-113.542903,Playground
Terwillegar South Park,53.439795,-113.580068,Playground
Rundle Park,53.554866,-113.387312,Playground
Homesteader School,53.58686,-113.412578,Playground
Laurier Park Playground,53.510508,-113.548951,Playground
Carlton Park/Elizabeth Finch School,53.619987,-113.559854,Playground
Richford,53.425719,-113.506966,Playground
Ottewell Community League,53.530724,-113.42418,Playground
Centennial School (Gariepy),53.493498,-113.623454,Playground
Jackie Parker Park,53.484067,-113.421603,Playground
Parkview Playground,53.525112,-113.569993,Playground
Castle Downs Park,53.616613,-113.525023,Playground
Gallagher Park,53.535997,-113.472575,Playground
Castle Downs Park,53.616402,-113.525633,Playground
Kinsmen Park Senior,53.527228,-113.509179,Playground
Donnan Park/Arena,53.515547,-113.469054,Playground
Dr. Francis Crang Park,53.486657,-113.501659,Playground
Homesteader School,53.587081,-113.412397,Playground
Beacon Heights Park Tot Lot,53.572946,-113.396043,Playground
Hillview School,53.46809,-113.427058,Playground
Bannerman Park,53.604172,-113.378782,Playground
Cameron Heights,53.47325,-113.636178,Playground
St. Bernadette School,53.572186,-113.402374,Playground
Hudson Park,53.607524,-113.556311,Playground
Michael Strembitsky,53.413816,-113.462546,Playground
Granville Tot Lot,53.507299,-113.679078,Playground
Silverberry Park,53.457333,-113.384253,Playground
Coronation,53.555532,-113.560356,Playground
Mount Pleasant Park,53.495342,-113.500531,Playground
Delton School,53.575395,-113.478432,Playground
Wedgewood Heights Playground,53.480613,-113.646601,Playground
Blackmud Park,53.420234,-113.513253,Playground
Strathcona Communuty League,53.522558,-113.492786,Playground
Baturyn Park,53.63265,-113.504608,Playground
Ecole Frere Antoine School,53.46019,-113.448736,Playground
Mayliewan (St John Bosco School) Park,53.622079,-113.459311,Playground
Michael Strembitsky,53.414015,-113.462564,Playground
McLeod Meadows,53.615016,-113.441499,Playground
St James,53.513946,-113.455875,Playground
Woodcroft Playground,53.564706,-113.561899,Playground
Windsor Park Community League,53.523253,-113.535601,Playground
Carlton Park/Elizabeth Finch School,53.619925,-113.559846,Playground
Sherwood Playground,53.528895,-113.58743,Playground
Terrace Heights School,53.53932,-113.43524,Playground
Blair McPherson,53.468886,-113.362709,Playground
St Catherine,53.55591,-113.509512,Playground
Parkview Playground,53.525314,-113.56956,Playground
Queen Alexandra,53.513476,-113.504871,Playground
Mary Finlay Park,53.543593,-113.451432,Playground
Chappelle,53.406295,-113.573049,Playground
Floden Park,53.563764,-113.407838,Playground
William Hawrelak Park,53.526985,-113.544235,Playground
Laurier Park Playground,53.510441,-113.548819,Playground
Lansdowne Community League,53.487007,-113.545939,Playground
Tipaskan School,53.462787,-113.460434,Playground
Greenfield Community League,53.473567,-113.526034,Playground
Silverberry Park,53.457784,-113.384493,Playground
Fulton Place Community League,53.546285,-113.425963,Playground
Lynnwood Playground,53.516211,-113.589784,Playground
Kameyosek School,53.461237,-113.443344,Playground
Fraser School/Park,53.6106,-113.372575,Playground
Beverly Heights Playground,53.569151,-113.395331,Playground
Ellerslie Crossing,53.428982,-113.459042,Playground
Riverdale School,53.543495,-113.467638,Playground
Northmount Playground,53.603226,-113.481618,Playground
William Hawrelak Park,53.527023,-113.543955,Playground
Queen Alexandra Community League,53.509572,-113.508492,Playground
Granville,53.498772,-113.679143,Playground
Major General Griesbach - Central Park,53.606096,-113.497999,Playground
Cumberland Park,53.611029,-113.54515,Playground
J. A. Fife School,53.611118,-113.461661,Playground
Evergreen Trailer Park,53.632161,-113.351216,Playground
Klarvatten,53.63313,-113.475354,Playground
Meyonohk School,53.455062,-113.456588,Playground
Charles Simmonds Park,53.515563,-113.53071,Playground
St Brendan,53.530115,-113.424346,Playground
Oliver School,53.543694,-113.523327,Playground
Glenridding Playground,53.420733,-113.60264,Playground
Lago Lindo,53.63479,-113.487443,Playground
Satoo School,53.446266,-113.459121,Playground
Westglen,53.554391,-113.541966,Playground
Sheriff Robertson Park,53.559238,-113.466021,Playground
Cameron Heights,53.47306,-113.636628,Playground
Primrose Park,53.517693,-113.648513,Playground
,53.576554,-113.478124,Playground
Aldergrove Park,53.518978,-113.634974,Playground
Glengarry School,53.595554,-113.484685,Playground
Princeton,53.58959,-113.458885,Playground
Laurel Park 3,53.441357,-113.388157,Playground
Earl Buxton School,53.474727,-113.58393,Playground
Meadowlark Playground,53.525249,-113.597026,Playground
James Gibbons,53.522757,-113.584291,Playground
Pleasantview Community League,53.493959,-113.510516,Playground
North Glenora Community League,53.554816,-113.557543,Playground
St. Elizabeth Seton School/Park,53.594467,-113.396909,Playground
Greenfield Sch,53.472901,-113.526936,Playground
Grace Martin School,53.469052,-113.455335,Playground
Pleasantview Sch,53.495135,-113.503456,Playground
Rutherford Sch,53.52252,-113.468375,Playground
Queen Alexandra,53.51335,-113.504758,Playground
,53.459081,-113.362941,Playground
Laurier Heights School Playground,53.516828,-113.567359,Playground
Rundle Park,53.55496,-113.38651,Playground
Suder Greens,53.520861,-113.684698,Playground
St. Williams Park,53.596835,-113.432955,Playground
Gallagher Park,53.535859,-113.472245,Playground
Edmonton Chris,53.555715,-113.567862,Playground
Kensington,53.595766,-113.528233,Playground
Kinross-Kerr Park,53.476154,-113.596675,Playground
Centennial School (Gariepy),53.493471,-113.622965,Playground
Mayfield Community League Playground,53.555303,-113.595464,Playground
Allendale School,53.500973,-113.50244,Playground
Lorelei Playground,53.623188,-113.501579,Playground
Russ Barnes Arena/ Santa Rosa Park,53.574036,-113.44651,Playground
Rio Terrace Playground,53.508337,-113.58964,Playground
Airway Park,53.560864,-113.514342,Playground
Canon Ridge,53.580437,-113.378499,Playground
West Meadowlark Community League,53.529289,-113.606268,Playground
Borden Park,53.561857,-113.453582,Playground
Lansdowne Community League,53.486835,-113.546046,Playground
Callingwood Playground,53.508309,-113.621887,Playground
Pleasantview Sch,53.494961,-113.503344,Playground
Montrose School,53.572302,-113.435505,Playground
Glengarry Park,53.595854,-113.476635,Playground
Kernohan,53.593434,-113.383565,Playground
Carlisle Playground,53.605017,-113.523752,Playground
Rosslyn Playground,53.594136,-113.512246,Playground
Minchau School,53.468897,-113.40876,Playground
Creek's Crossing Park/Blessed Kateri,53.475593,-113.400569,Playground
,53.641047,-113.505929,Playground
Central Hill Park,53.606719,-113.500061,Playground
York Community League/Steele Heights,53.602017,-113.433542,Playground
Queen Mary Park School,53.555628,-113.514451,Playground
Rundle Park,53.55516,-113.386348,Playground
Twin Brooks,53.443317,-113.526948,Playground
St Paul,53.533495,-113.571835,Playground
Laurier Heights School Playground,53.517072,-113.567134,Playground
Elsinore/Chambery Park,53.641201,-113.505622,Playground
Westmount Back Alley Park,53.552329,-113.547237,Playground
Beverly Heights Park Tot Lot,53.560941,-113.400918,Playground
Edmonton Chris,53.556088,-113.567665,Playground
James Ramsay Park,53.481082,-113.581321,Playground
Mt. Royal Sch,53.5689,-113.424661,Playground
Potter Greens Playground #2,53.517662,-113.675223,Playground
Capilano School,53.555805,-113.422175,Playground
Queen Elizabeth Park,53.525338,-113.494724,Playground
Ellerslie Crossing,53.42891,-113.458439,Playground
Lynnwood,53.516406,-113.587388,Playground
Suder Greens,53.521009,-113.684503,Playground
Ermineskin Park,53.456861,-113.506023,Playground
Balwin Park,53.587138,-113.456135,Playground
Bessie Nichols School Playground,53.486341,-113.672525,Playground
Kitchener Park,53.544307,-113.518814,Playground
Terwillegar South Park,53.439869,-113.58027,Playground
Sherbrooke Playground,53.574815,-113.548285,Playground
Elmwood Community League,53.516113,-113.605837,Playground
Brookside School,53.491247,-113.568702,Playground
Larkspur Park,53.480349,-113.38705,Playground
Secord,53.532371,-113.7058,Playground
Gabrielle Roy School,53.529852,-113.462188,Playground
Glastonbury Park (The Grange),53.506555,-113.667468,Playground
Oxford Park,53.618061,-113.547904,Playground
Virginia Park School,53.560419,-113.449744,Playground
Athlone Park,53.589151,-113.545913,Playground
Orchards,53.411773,-113.470903,Playground
Ellerslie Elementary School,53.425679,-113.442226,Playground
Carlisle Playground,53.605111,-113.52402,Playground
Rideau School,53.477885,-113.504652,Playground
Prince Charles Playground,53.574456,-113.536758,Playground
Ellerslie Elementary School,53.425738,-113.442135,Playground
Our Lady of Mount Carmel,53.513184,-113.50234,Playground
St Maria Goretti,53.585753,-113.407081,Playground
Glengarry School,53.595586,-113.484664,Playground
Rosenthal,53.51709,-113.699334,Playground
John J. Olinyk Park,53.568538,-113.412989,Playground
Alberta Avenue NW,53.571276,-113.483832,Playground
Calder Community League Playground,53.586316,-113.52828,Playground
Borden Park,53.561833,-113.454131,Playground
Overlanders Playground,53.581129,-113.387773,Playground
St Martin,53.488852,-113.523579,Playground
James Ramsay Park,53.480959,-113.581292,Playground
Creek's Crossing Park/Blessed Kateri,53.475249,-113.400152,Playground
Blackmud Park,53.420107,-113.512827,Playground
Eaux Claires Park Playground,53.621883,-113.486018,Playground
Weinlos School,53.461444,-113.415831,Playground
Abbotsfield Playground,53.573601,-113.389813,Playground
Waverley,53.523686,-113.4342,Playground
Lymburn School Playground,53.506354,-113.64753,Playground
Henri Legay,53.603739,-113.421417,Playground
St. Vladimir,53.592582,-113.457679,Playground
St Monica,53.490716,-113.573493,Playground
Mee-Yah-Noh School,53.587554,-113.482795,Playground
Knob Hill Park,53.531771,-113.47972,Playground
Mayliewan (St John Bosco School) Park,53.621879,-113.459063,Playground
Glenora,53.544012,-113.554941,Playground
Charles Simmonds Park,53.515317,-113.530811,Playground
Parkdale School,53.567688,-113.472183,Playground
CASA Centre,53.49965,-113.506961,Playground
Hillview School,53.46809,-113.426602,Playground
Greenfield Sch,53.472585,-113.525918,Playground
Kinsmen Park Senior,53.52671,-113.509101,Playground
Westmount Playground,53.555897,-113.541624,Playground
Sister Annata Brockman,53.490274,-113.683409,Playground
Abbott School,53.574703,-113.392308,Playground
Talmud Torah,53.499394,-113.62178,Playground
Belmont,53.593357,-113.393605,Playground
St. Francis,53.5885,-113.443086,Playground
Meyokumin School,53.450066,-113.429408,Playground
Mount Royal,53.567389,-113.424232,Playground
Bonnie Doon Park,53.527662,-113.470526,Playground
William Hawrelak Park,53.52679,-113.544553,Playground
Kinross-Kerr Park,53.475941,-113.59658,Playground
Westview Village School Playground,53.553179,-113.692003,Playground
Donnan Park/Arena,53.515335,-113.468689,Playground
Hairsine Community League,53.60379,-113.390788,Playground
Westglen,53.555004,-113.542432,Playground
Emily Murphy Park,53.534165,-113.538733,Playground
Glenwood Community League,53.535861,-113.604909,Playground
Allan Grey Park,53.511689,-113.462215,Playground
Inglewood Tot Lot,53.561041,-113.531827,Playground
Summerside 58,53.412834,-113.446434,Playground
Kildare Park,53.605685,-113.456001,Playground
Magrath Heights,53.449412,-113.559623,Playground
Garneau Community League,53.519855,-113.513171,Playground
,53.596951,-113.560166,Playground
Dechene Playground,53.491407,-113.63682,Playground
Ozerna Park,53.621087,-113.448356,Playground
Mount Pleasant Park,53.495348,-113.500413,Playground
Greenfield Sch,53.472671,-113.526172,Playground
Crawford Plains School,53.44089,-113.404398,Playground
Ken Newman Playground,53.553795,-113.580952,Playground
Windermere Ridge,53.440776,-113.629687,Playground
Cardinal Leger,53.606281,-113.47533,Playground
King Edward Park,53.513848,-113.460467,Playground
Kenilworth Park,53.522691,-113.43765,Playground
Mayliewan (St John Bosco School) Park,53.622052,-113.459285,Playground
Delwood School/Park,53.596599,-113.457338,Playground
Lendrum/Avalon School,53.491285,-113.522878,Playground
John Paul School,53.47151,-113.426494,Playground
Gordon Drynan Park,53.546115,-113.609435,Playground
Laurier Park Playground,53.509446,-113.553263,Playground
Malmo Plains School,53.485215,-113.530228,Playground
Oliver Arena/ Community League,53.545605,-113.525817,Playground
Afton School,53.526786,-113.6088,Playground
,53.640044,-113.428298,Playground
Rundle Heights School,53.562019,-113.392463,Playground
Aspen Gardens Community League,53.474935,-113.542992,Playground
Rundle Park,53.555139,-113.386037,Playground
Sweetgrass School,53.462854,-113.529558,Playground
Sakaw School,53.440951,-113.430073,Playground
Brightview School,53.548789,-113.587795,Playground
Jackie Parker Park,53.484393,-113.423195,Playground
Holy Family,53.447182,-113.403672,Playground
St Clare,53.571827,-113.438122,Playground
Brittania Youngstown Community League,53.548457,-113.598114,Playground
St Vincent,53.548619,-113.560783,Playground
Woodcroft Sch,53.567189,-113.56075,Playground
Summerlea Playground,53.527008,-113.624372,Playground
Henderson Park,53.46886,-113.597833,Playground
Central Hill Park,53.606836,-113.500297,Playground
Crestwood Tot Lot,53.538869,-113.575141,Playground
Tipaskan School,53.462622,-113.459927,Playground
St. Edmund School Playground,53.590832,-113.524672,Playground
Silver Heights Park,53.532718,-113.46461,Playground
Rutherford Sch,53.522498,-113.467972,Playground
Hardisty,53.548066,-113.429645,Playground
Westglen Playground,53.555011,-113.543874,Playground
Rainbow Valley Campground,53.485094,-113.555555,Playground
Malcolm Tweddle School,53.476746,-113.457027,Playground
Parkdale School,53.567665,-113.47219,Playground
Blackmud Park,53.42036,-113.513212,Playground
Forest Heights School,53.544215,-113.452799,Playground
Blackburne,53.429428,-113.499439,Playground
Hairsine Community League,53.603346,-113.390056,Playground
Ecole Frere Antoine School,53.460093,-113.448957,Playground
Queen Mary CL,53.554221,-113.52468,Playground
MacEwan,53.429397,-113.53036,Playground
Kinsmen Park Senior,53.526855,-113.50907,Playground
Dunluce,53.622426,-113.528323,Playground
Elmwood Community League,53.515915,-113.606077,Playground
Glastonbury Park West,53.505632,-113.672543,Playground
Canon Ridge,53.580837,-113.378457,Playground
Magrath Heights,53.449597,-113.559605,Playground
Glenora,53.544128,-113.555319,Playground
Idylwylde Park,53.523285,-113.451558,Playground
Prince Rupert School,53.562263,-113.519538,Playground
Forest Heights Park,53.545373,-113.453692,Playground
R. J. Scott,53.568884,-113.400981,Playground
St Justins,53.517228,-113.622181,Playground
Beverly Heights Park Tot Lot,53.560903,-113.40092,Playground
Jamieson Place Playground,53.49042,-113.650559,Playground
Jackie Parker Park,53.484076,-113.421981,Playground
Charles Simmonds Park,53.515686,-113.531021,Playground
Windermere Park,53.427144,-113.622708,Playground
Garneau School West,53.522109,-113.514668,Playground
Empire Park Community League,53.486091,-113.508576,Playground
Delton Tot Lot,53.579556,-113.4894,Playground
Grovenor Playground,53.545726,-113.568536,Playground
Baturyn Park,53.632766,-113.504602,Playground
Wellington Park Playground,53.596481,-113.550355,Playground
Spruce Avenue Playground,53.565579,-113.49707,Playground
Brander Gardens School,53.493446,-113.577755,Playground
Blue Quill Community,53.458002,-113.524493,Playground
Rosslyn Tot Playground,53.597945,-113.498718,Playground
Eastwood School,53.574854,-113.464878,Playground
Mayfield Community League Playground,53.555131,-113.595074,Playground
Dunluce Community League Playground,53.62368,-113.525081,Playground
Lendrum Place Community League,53.493969,-113.524165,Playground
Ecole Ste. Jeanne D'Arc,53.520724,-113.430418,Playground
Lendrum/Avalon School,53.491312,-113.523091,Playground
Glendale School,53.53663,-113.600483,Playground
Fulton PIace School,53.545376,-113.425482,Playground
Robert Carter Park,53.464599,-113.5751,Playground
St. Boniface,53.477312,-113.537266,Playground
Richard Secord,53.477396,-113.533504,Playground
Hodgson Park,53.458592,-113.558903,Playground
Keyano Park,53.589736,-113.527318,Playground
Lendrum Place Community League,53.494304,-113.523869,Playground
St Teresa,53.458047,-113.527944,Playground
Ellingson Park,53.503167,-113.517633,Playground
St. Patrick School,53.574476,-113.489478,Playground
McKernan School,53.513715,-113.523566,Playground
Beverly Heights Lions Playground,53.56731,-113.40719,Playground
St. Richard School,53.446173,-113.429203,Playground
Chalmers Park Playground,53.590833,-113.534185,Playground
Newton School,53.576178,-113.427396,Playground
Argyll Park,53.505153,-113.463651,Playground
Klarvatten,53.633112,-113.475721,Playground
Rio Terrace Sch,53.508702,-113.587078,Playground
Ekota School,53.450126,-113.442054,Playground
Mother Teresa School,53.551845,-113.476138,Playground
Terwillegar Towne East,53.446632,-113.575345,Playground
Winterburn School Playground,53.534402,-113.687359,Playground
Grandview School,53.499097,-113.5462,Playground
Albert G. Nickel Park Playground,53.597035,-113.559739,Playground
Evansdale School/Park,53.610414,-113.482297,Playground
Inglewood Playground,53.566193,-113.539338,Playground
Alberta Avenue NW,53.57099,-113.483979,Playground
Riverdale Park,53.54138,-113.473232,Playground
Lee Ridge School,53.471312,-113.446159,Playground
Bonnie Doon Park,53.527382,-113.471052,Playground
Westwood Community League Park,53.576164,-113.499561,Playground
Summerside 58,53.412975,-113.446532,Playground
Victoria Park,53.533937,-113.523658,Playground
Brittania Youngstown Community League,53.548388,-113.597827,Playground
Ritchie Park,53.513893,-113.481833,Playground
King Edward School,53.521405,-113.492582,Playground
Secord Playground,53.533431,-113.691525,Playground
Malmo Plains School,53.485078,-113.530391,Playground
Prince Charles,53.578222,-113.539786,Playground
Larkspur Dry Pond,53.478561,-113.377963,Playground
John Patrick Gillese Park,53.503418,-113.669005,Playground
Rutherford Park,53.420024,-113.535001,Playground
Glengarry Day C,53.594279,-113.47575,Playground
St. Gregory,53.552114,-113.568846,Playground
JH Picard,53.506922,-113.485153,Playground
La Perle Playground,53.53331,-113.643823,Playground
Bisset School,53.46185,-113.399427,Playground
Our Lady of Vic,53.514279,-113.594892,Playground
Mill Woods Play and Spray,53.455272,-113.436248,Playground
Cumberland Park,53.610989,-113.544352,Playground
Norwood School,53.560035,-113.48837,Playground
Windermere Tot Lot,53.447601,-113.611371,Playground
Greenfield Sch,53.472514,-113.52581,Playground
Father L. Green,53.607279,-113.457099,Playground
Terwillegar Towne Playground,53.449854,-113.584851,Playground
Giovanni Caboto,53.556266,-113.484164,Playground
Ogilvie Ridge Community,53.463286,-113.561864,Playground
Starling,53.59365,-113.655154,Playground
Belgravia Community League,53.50957,-113.530525,Playground
Cy Becker Tot Lot,53.629203,-113.401175,Playground
St. Gabriel School,53.55061,-113.42347,Playground
Giovanni Caboto,53.556424,-113.484156,Playground
Overlanders Playground,53.580988,-113.387383,Playground
Borden Park,53.561928,-113.454117,Playground
Westglen,53.554847,-113.542409,Playground
Richfield Tot Lot,53.473039,-113.457482,Playground
Jackie Parker Park,53.484242,-113.421958,Playground
Kildare Park,53.605572,-113.456296,Playground
Cameron Heights,53.473239,-113.636405,Playground
Windsor Park School,53.523573,-113.536033,Playground
Ottewell Community League,53.530909,-113.423959,Playground
Rundle Park,53.555069,-113.386828,Playground
Potter Greens Playground #1,53.519359,-113.666858,Playground
Norwood Square,53.56487,-113.487874,Playground
St. Angela School,53.595519,-113.551362,Playground
Glastonbury Park West,53.505534,-113.672428,Playground
Beverly Jubilee Park,53.574396,-113.40722,Playground
Silver Heights Park,53.532741,-113.464921,Playground
Falconer Park,53.463152,-113.588499,Playground
Ellerslie Campus,53.426798,-113.442334,Playground
,53.49945,-113.622416,Playground
Holyrood School,53.531167,-113.450762,Playground
Laurel Park,53.451392,-113.390185,Playground
Kenilworth Park,53.522641,-113.43744,Playground
Hollick Kenyon Park Playground,53.621382,-113.419882,Playground
Kenilworth Park,53.522972,-113.43756,Playground
Brightview Community League,53.548483,-113.587363,Playground
Donnan Park/Arena,53.515336,-113.468507,Playground
Royal Gardens Community League,53.478204,-113.535767,Playground
Maple Ridge Park,53.501645,-113.368111,Playground
Central McDougall,53.555211,-113.503869,Playground
Woodcroft Playground,53.564999,-113.561878,Playground
Floden Park,53.563655,-113.408014,Playground
Floden Park,53.563735,-113.40742,Playground
Westbrook School,53.475491,-113.54088,Playground
King Edward School,53.521291,-113.492702,Playground
Paisley Park,53.414677,-113.559506,Playground
McKernan Park,53.510915,-113.51913,Playground
Rapperswill,53.637803,-113.532713,Playground
Daly Grove School,53.448864,-113.399378,Playground
Monsignor Walter Fitzgerald Playground,53.505571,-113.635037,Playground
Jackie Parker Park,53.484457,-113.424477,Playground
Lilliput Park,53.51006,-113.479383,Playground
St. Phillip/Kinsman,53.609079,-113.475476,Playground
Ekota School,53.450059,-113.442471,Playground
St. Gerard School,53.580182,-113.469756,Playground
Balwin,53.591415,-113.450804,Playground
Terwillegar Towne East,53.446723,-113.57553,Playground
McQueen Community League,53.55414,-113.570273,Playground
Kinsmen Park Senior,53.527291,-113.509153,Playground
Terwillegar Towne East,53.446564,-113.575575,Playground
"W.C. ""Tubby"" Bateman Park",53.523229,-113.480044,Playground
Greenview,53.47457,-113.428289,Playground
Terwillegar South,53.442703,-113.587139,Playground
Prog. Academy,53.550082,-113.550126,Playground
Our Lady of the Prairies Playground,53.499328,-113.623826,Playground
Bishop Savaryn School,53.621806,-113.507063,Playground
Monsignor Fee Otterson,53.417354,-113.520751,Playground
Beacon Heights School,53.575614,-113.414721,Playground
Cy Becker Park,53.634085,-113.407956,Playground
Robert Brett Park,53.596371,-113.427778,Playground
Hazeldean School,53.503328,-113.477159,Playground
Eaux Claires Park Playground,53.62168,-113.486204,Playground
Belvedere School/Park,53.594153,-113.434997,Playground
Westmount Back Alley Park,53.55224,-113.5474,Playground
Jasper Park Playground,53.520469,-113.584309,Playground
,53.58332,-113.407687,Playground
Capilano School,53.556018,-113.422124,Playground
,53.426749,-113.39971,Playground
Tipton Park,53.51647,-113.509744,Playground
Capilano School,53.555722,-113.422354,Playground
Tipton Park,53.516504,-113.510245,Playground
,53.4807,-113.351122,Playground
Tipton Park,53.516517,-113.509866,Playground
,53.633109,-113.459467,Playground
,53.450919,-113.376648,Playground
Tipton Park,53.516486,-113.51065,Playground
Poplar Park,53.626536,-113.473578,Playground
Horsehill School/Playground,53.6572,-113.343207,Playground
Horsehill School/Playground,53.657202,-113.342964,Playground
Avonmore Park,53.510373,-113.448926,Playground
Ambleside,53.432881,-113.604043,Playground
Montrose Community League,53.572521,-113.432931,Playground
Bergman Park,53.578987,-113.408667,Playground
Idylwylde/Metro School,53.522152,-113.453622,Playground
Dovercourt Community League Playground,53.576167,-113.559421,Playground
Blackburne,53.429496,-113.499855,Playground
Montrose Community League,53.572537,-113.433191,Playground
Grandview School,53.498916,-113.546497,Playground
Laurier Park Playground,53.51006,-113.549518,Playground
Zoie Gardner Park,53.585448,-113.450596,Playground
Scott Robertson,53.596161,-113.504216,Playground
Dovercourt Community League Playground,53.575746,-113.559786,Playground
Kensington Playground,53.595903,-113.530718,Playground
Greenview School,53.473497,-113.426732,Playground
Wolf Willow Park Playground,53.4992,-113.60438,Playground
Gold Bar Condos,53.542648,-113.409779,Playground
George Luck School,53.472898,-113.573036,Playground
Gold Bar Sch,53.549512,-113.414335,Playground
Tipton Park,53.516455,-113.510137,Playground
Youngstown,53.546108,-113.603955,Playground
Bonnie Doon Park,53.527376,-113.470595,Playground
Crestwood Community League Playground,53.533157,-113.569657,Playground
Caernarvon Park,53.610791,-113.528156,Playground
Northmount,53.603334,-113.477589,Playground
Brintnell Park Playground,53.619315,-113.407788,Playground
Belle Rive Playground,53.619683,-113.470921,Playground
Rideau School,53.478511,-113.504728,Playground
St. Gabriel School,53.551001,-113.423784,Playground
Caernarvon Tot Lot B,53.609809,-113.520312,Playground
Gallagher Park,53.535876,-113.4726,Playground
Jamieson Place Playground,53.490271,-113.651067,Playground
Richfield,53.469061,-113.452228,Playground
Dovercourt,53.574185,-113.561889,Playground
Oxford Park,53.617816,-113.547562,Playground
Elsinore/Chambery Park,53.640986,-113.505937,Playground
Laurier Heights Community Playground,53.516498,-113.569718,Playground
Glenora Playground,53.546673,-113.55689,Playground
